{
    "type": "FeatureCollection",
    "name": "Stops_Mhd_Presov",
    "features": [
        {
            "type": "Feature",
            "geometry": {
                "type": "Point",
                "coordinates": [
                    21.23933,
                    49.00013
                ]
            },
            "properties": {
                "Type": "Stop_Mhd",
                "name": "Trojica",
                "id": 1
            }
        },
        {
            "type": "Feature",
            "geometry": {
                "type": "Point",
                "coordinates": [
                    21.23983,
                    48.99922
                ]
            },
            "properties": {
                "Type": "Stop_Mhd",
                "name": "Trojica",
                "id": 2
            }
        },
        {
            "type": "Feature",
            "geometry": {
                "type": "Point",
                "coordinates": [
                    21.242162,
                    48.99559
                ]
            },
            "properties": {
                "Type": "Stop_Mhd",
                "name": "Na Hlavnej",
                "id": 3
            }
        },
        {
            "type": "Feature",
            "geometry": {
                "type": "Point",
                "coordinates": [
                    21.241792,
                    48.99604
                ]
            },
            "properties": {
                "Type": "Stop_Mhd",
                "name": "Na Hlavnej",
                "id": 4
            }
        },
        {
            "type": "Feature",
            "geometry": {
                "type": "Point",
                "coordinates": [
                    21.244072,
                    48.99325
                ]
            },
            "properties": {
                "Type": "Stop_Mhd",
                "name": "Divadlo Jonáša Záborského",
                "id": 5
            }
        },
        {
            "type": "Feature",
            "geometry": {
                "type": "Point",
                "coordinates": [
                    21.24536,
                    48.99164
                ]
            },
            "properties": {
                "Type": "Stop_Mhd",
                "name": "Veľká pošta",
                "id": 6
            }
        },
        {
            "type": "Feature",
            "geometry": {
                "type": "Point",
                "coordinates": [
                    21.247,
                    48.98952
                ]
            },
            "properties": {
                "Type": "Stop_Mhd",
                "name": "Čierny most",
                "id": 7
            }
        },
        {
            "type": "Feature",
            "geometry": {
                "type": "Point",
                "coordinates": [
                    21.24975,
                    48.984332
                ]
            },
            "properties": {
                "Type": "Stop_Mhd",
                "name": "Železničná stanica",
                "id": 8
            }
        },
        {
            "type": "Feature",
            "geometry": {
                "type": "Point",
                "coordinates": [
                    21.249961,
                    48.983375
                ]
            },
            "properties": {
                "Type": "Stop_Mhd",
                "name": "Železničná stanica",
                "id": 9
            }
        },
        {
            "type": "Feature",
            "geometry": {
                "type": "Point",
                "coordinates": [
                    21.23595,
                    49.00095
                ]
            },
            "properties": {
                "Type": "Stop_Mhd",
                "name": "Poliklinika",
                "id": 10
            }
        },
        {
            "type": "Feature",
            "geometry": {
                "type": "Point",
                "coordinates": [
                    21.23324,
                    49.00078
                ]
            },
            "properties": {
                "Type": "Stop_Mhd",
                "name": "Poliklinika",
                "id": 11
            }
        },
        {
            "type": "Feature",
            "geometry": {
                "type": "Point",
                "coordinates": [
                    21.22806,
                    48.99797
                ]
            },
            "properties": {
                "Type": "Stop_Mhd",
                "name": "Obrancov mieru",
                "id": 12
            }
        },
        {
            "type": "Feature",
            "geometry": {
                "type": "Point",
                "coordinates": [
                    21.22835,
                    48.99713
                ]
            },
            "properties": {
                "Type": "Stop_Mhd",
                "name": "Obrancov mieru",
                "id": 13
            }
        },
        {
            "type": "Feature",
            "geometry": {
                "type": "Point",
                "coordinates": [
                    21.21721,
                    48.98128
                ]
            },
            "properties": {
                "Type": "Stop_Mhd",
                "name": "Za Kalváriou",
                "id": 14
            }
        },
        {
            "type": "Feature",
            "geometry": {
                "type": "Point",
                "coordinates": [
                    21.21767,
                    48.98328
                ]
            },
            "properties": {
                "Type": "Stop_Mhd",
                "name": "Hôrka",
                "id": 15
            }
        },
        {
            "type": "Feature",
            "geometry": {
                "type": "Point",
                "coordinates": [
                    21.22092,
                    48.985624
                ]
            },
            "properties": {
                "Type": "Stop_Mhd",
                "name": "Záhradkárska osada",
                "id": 16
            }
        },
        {
            "type": "Feature",
            "geometry": {
                "type": "Point",
                "coordinates": [
                    21.2262,
                    48.986137
                ]
            },
            "properties": {
                "Type": "Stop_Mhd",
                "name": "Horárska",
                "id": 17
            }
        },
        {
            "type": "Feature",
            "geometry": {
                "type": "Point",
                "coordinates": [
                    21.229503,
                    48.987468
                ]
            },
            "properties": {
                "Type": "Stop_Mhd",
                "name": "Zimný štadión",
                "id": 18
            }
        },
        {
            "type": "Feature",
            "geometry": {
                "type": "Point",
                "coordinates": [
                    21.229298,
                    48.9879
                ]
            },
            "properties": {
                "Type": "Stop_Mhd",
                "name": "Zimný štadión",
                "id": 19
            }
        },
        {
            "type": "Feature",
            "geometry": {
                "type": "Point",
                "coordinates": [
                    21.229542,
                    48.99091
                ]
            },
            "properties": {
                "Type": "Stop_Mhd",
                "name": "Pod Kalváriou",
                "id": 20
            }
        },
        {
            "type": "Feature",
            "geometry": {
                "type": "Point",
                "coordinates": [
                    21.228907,
                    48.992765
                ]
            },
            "properties": {
                "Type": "Stop_Mhd",
                "name": "Stredná lesnícka škola",
                "id": 21
            }
        },
        {
            "type": "Feature",
            "geometry": {
                "type": "Point",
                "coordinates": [
                    21.224853,
                    48.992133
                ]
            },
            "properties": {
                "Type": "Stop_Mhd",
                "name": "Kollárova",
                "id": 22
            }
        },
        {
            "type": "Feature",
            "geometry": {
                "type": "Point",
                "coordinates": [
                    21.223577,
                    48.994369
                ]
            },
            "properties": {
                "Type": "Stop_Mhd",
                "name": "Sázavského",
                "id": 23
            }
        },
        {
            "type": "Feature",
            "geometry": {
                "type": "Point",
                "coordinates": [
                    21.222153,
                    48.996634
                ]
            },
            "properties": {
                "Type": "Stop_Mhd",
                "name": "Odborárska",
                "id": 24
            }
        },
        {
            "type": "Feature",
            "geometry": {
                "type": "Point",
                "coordinates": [
                    21.221948,
                    48.99707
                ]
            },
            "properties": {
                "Type": "Stop_Mhd",
                "name": "Odborárska",
                "id": 25
            }
        },
        {
            "type": "Feature",
            "geometry": {
                "type": "Point",
                "coordinates": [
                    21.22712,
                    48.998092
                ]
            },
            "properties": {
                "Type": "Stop_Mhd",
                "name": "Centrál",
                "id": 26
            }
        },
        {
            "type": "Feature",
            "geometry": {
                "type": "Point",
                "coordinates": [
                    21.245505,
                    48.9932
                ]
            },
            "properties": {
                "Type": "Stop_Mhd",
                "name": "Grešova",
                "id": 27
            }
        },
        {
            "type": "Feature",
            "geometry": {
                "type": "Point",
                "coordinates": [
                    21.25259,
                    48.9964
                ]
            },
            "properties": {
                "Type": "Stop_Mhd",
                "name": "Fakultná nemocnica",
                "id": 28
            }
        },
        {
            "type": "Feature",
            "geometry": {
                "type": "Point",
                "coordinates": [
                    21.25087,
                    48.99853
                ]
            },
            "properties": {
                "Type": "Stop_Mhd",
                "name": "Detská nemocnica",
                "id": 29
            }
        },
        {
            "type": "Feature",
            "geometry": {
                "type": "Point",
                "coordinates": [
                    21.2511,
                    48.998242
                ]
            },
            "properties": {
                "Type": "Stop_Mhd",
                "name": "Detská nemocnica",
                "id": 30
            }
        },
        {
            "type": "Feature",
            "geometry": {
                "type": "Point",
                "coordinates": [
                    21.2479,
                    48.99951
                ]
            },
            "properties": {
                "Type": "Stop_Mhd",
                "name": "Dilongova",
                "id": 31
            }
        },
        {
            "type": "Feature",
            "geometry": {
                "type": "Point",
                "coordinates": [
                    21.24846,
                    48.99752
                ]
            },
            "properties": {
                "Type": "Stop_Mhd",
                "name": "Sládkovičova",
                "id": 32
            }
        },
        {
            "type": "Feature",
            "geometry": {
                "type": "Point",
                "coordinates": [
                    21.25021,
                    48.99519
                ]
            },
            "properties": {
                "Type": "Stop_Mhd",
                "name": "Moyzesova",
                "id": 33
            }
        },
        {
            "type": "Feature",
            "geometry": {
                "type": "Point",
                "coordinates": [
                    21.239289,
                    49.001793
                ]
            },
            "properties": {
                "Type": "Stop_Mhd",
                "name": "(roh z Levočskej vpravo na Hlavnú)",
                "id": 34
            }
        },
        {
            "type": "Feature",
            "geometry": {
                "type": "Point",
                "coordinates": [
                    21.227,
                    48.99973
                ]
            },
            "properties": {
                "Type": "Stop_Mhd",
                "name": "(roh z Levočskej vľavo na Obrancov mieru)",
                "id": 35
            }
        },
        {
            "type": "Feature",
            "geometry": {
                "type": "Point",
                "coordinates": [
                    21.22296,
                    48.99708
                ]
            },
            "properties": {
                "Type": "Stop_Mhd",
                "name": "Októbrová",
                "id": 36
            }
        },
        {
            "type": "Feature",
            "geometry": {
                "type": "Point",
                "coordinates": [
                    21.22948,
                    48.9954
                ]
            },
            "properties": {
                "Type": "Stop_Mhd",
                "name": "Námestie mládeže",
                "id": 37
            }
        },
        {
            "type": "Feature",
            "geometry": {
                "type": "Point",
                "coordinates": [
                    21.24467,
                    48.97635
                ]
            },
            "properties": {
                "Type": "Stop_Mhd",
                "name": "Budovateľská",
                "id": 38
            }
        },
        {
            "type": "Feature",
            "geometry": {
                "type": "Point",
                "coordinates": [
                    21.244155,
                    48.979054
                ]
            },
            "properties": {
                "Type": "Stop_Mhd",
                "name": "Pekárne",
                "id": 39
            }
        },
        {
            "type": "Feature",
            "geometry": {
                "type": "Point",
                "coordinates": [
                    21.243626,
                    48.98179
                ]
            },
            "properties": {
                "Type": "Stop_Mhd",
                "name": "Priemyselné centrum",
                "id": 40
            }
        },
        {
            "type": "Feature",
            "geometry": {
                "type": "Point",
                "coordinates": [
                    21.243422,
                    48.98293
                ]
            },
            "properties": {
                "Type": "Stop_Mhd",
                "name": "Priemyselné centrum",
                "id": 41
            }
        },
        {
            "type": "Feature",
            "geometry": {
                "type": "Point",
                "coordinates": [
                    21.242914,
                    48.98605
                ]
            },
            "properties": {
                "Type": "Stop_Mhd",
                "name": "Štúrova",
                "id": 42
            }
        },
        {
            "type": "Feature",
            "geometry": {
                "type": "Point",
                "coordinates": [
                    21.243006,
                    48.98533
                ]
            },
            "properties": {
                "Type": "Stop_Mhd",
                "name": "Štúrova",
                "id": 43
            }
        },
        {
            "type": "Feature",
            "geometry": {
                "type": "Point",
                "coordinates": [
                    21.2298,
                    49.02365
                ]
            },
            "properties": {
                "Type": "Stop_Mhd",
                "name": "Bajkalská",
                "id": 44
            }
        },
        {
            "type": "Feature",
            "geometry": {
                "type": "Point",
                "coordinates": [
                    21.231768,
                    49.020945
                ]
            },
            "properties": {
                "Type": "Stop_Mhd",
                "name": "Veterinárna nemocnica",
                "id": 45
            }
        },
        {
            "type": "Feature",
            "geometry": {
                "type": "Point",
                "coordinates": [
                    21.235836,
                    49.0206
                ]
            },
            "properties": {
                "Type": "Stop_Mhd",
                "name": "Rázcestie Šidlovec",
                "id": 46
            }
        },
        {
            "type": "Feature",
            "geometry": {
                "type": "Point",
                "coordinates": [
                    21.23532,
                    49.02129
                ]
            },
            "properties": {
                "Type": "Stop_Mhd",
                "name": "Rázcestie Šidlovec",
                "id": 47
            }
        },
        {
            "type": "Feature",
            "geometry": {
                "type": "Point",
                "coordinates": [
                    21.236554,
                    49.01547
                ]
            },
            "properties": {
                "Type": "Stop_Mhd",
                "name": "Pod Skalkou",
                "id": 48
            }
        },
        {
            "type": "Feature",
            "geometry": {
                "type": "Point",
                "coordinates": [
                    21.236679,
                    49.01498
                ]
            },
            "properties": {
                "Type": "Stop_Mhd",
                "name": "Pod Skalkou",
                "id": 49
            }
        },
        {
            "type": "Feature",
            "geometry": {
                "type": "Point",
                "coordinates": [
                    21.236887,
                    49.01171
                ]
            },
            "properties": {
                "Type": "Stop_Mhd",
                "name": "Mičurinova",
                "id": 50
            }
        },
        {
            "type": "Feature",
            "geometry": {
                "type": "Point",
                "coordinates": [
                    21.236787,
                    49.0112
                ]
            },
            "properties": {
                "Type": "Stop_Mhd",
                "name": "Mičurinova",
                "id": 51
            }
        },
        {
            "type": "Feature",
            "geometry": {
                "type": "Point",
                "coordinates": [
                    21.23822,
                    49.00652
                ]
            },
            "properties": {
                "Type": "Stop_Mhd",
                "name": "Sabinovská",
                "id": 52
            }
        },
        {
            "type": "Feature",
            "geometry": {
                "type": "Point",
                "coordinates": [
                    21.238546,
                    49.00572
                ]
            },
            "properties": {
                "Type": "Stop_Mhd",
                "name": "Sabinovská",
                "id": 53
            }
        },
        {
            "type": "Feature",
            "geometry": {
                "type": "Point",
                "coordinates": [
                    21.24177,
                    48.98658
                ]
            },
            "properties": {
                "Type": "Stop_Mhd",
                "name": "Škultétyho",
                "id": 54
            }
        },
        {
            "type": "Feature",
            "geometry": {
                "type": "Point",
                "coordinates": [
                    21.2415,
                    48.986433
                ]
            },
            "properties": {
                "Type": "Stop_Mhd",
                "name": "Škultétyho",
                "id": 55
            }
        },
        {
            "type": "Feature",
            "geometry": {
                "type": "Point",
                "coordinates": [
                    21.235562,
                    48.99006
                ]
            },
            "properties": {
                "Type": "Stop_Mhd",
                "name": "Prešovská univerzita",
                "id": 56
            }
        },
        {
            "type": "Feature",
            "geometry": {
                "type": "Point",
                "coordinates": [
                    21.232566,
                    48.99359
                ]
            },
            "properties": {
                "Type": "Stop_Mhd",
                "name": "Duchnovičovo námestie",
                "id": 57
            }
        },
        {
            "type": "Feature",
            "geometry": {
                "type": "Point",
                "coordinates": [
                    21.2427,
                    48.986885
                ]
            },
            "properties": {
                "Type": "Stop_Mhd",
                "name": "(roh zo Škultétyho vľavo na Budovateľskú)",
                "id": 58
            }
        },
        {
            "type": "Feature",
            "geometry": {
                "type": "Point",
                "coordinates": [
                    21.247615,
                    48.9886
                ]
            },
            "properties": {
                "Type": "Stop_Mhd",
                "name": "(roh zo Škultétyho vľavo na Masarykovu)",
                "id": 59
            }
        },
        {
            "type": "Feature",
            "geometry": {
                "type": "Point",
                "coordinates": [
                    21.230027,
                    48.99419
                ]
            },
            "properties": {
                "Type": "Stop_Mhd",
                "name": "(roh z Obrancov mieru vľavo na Požiarnicku)",
                "id": 60
            }
        },
        {
            "type": "Feature",
            "geometry": {
                "type": "Point",
                "coordinates": [
                    21.2304,
                    48.99438
                ]
            },
            "properties": {
                "Type": "Stop_Mhd",
                "name": "(roh z Požiarnickej vpravo na Obrancov mieru)",
                "id": 61
            }
        },
        {
            "type": "Feature",
            "geometry": {
                "type": "Point",
                "coordinates": [
                    21.231957,
                    48.9947
                ]
            },
            "properties": {
                "Type": "Stop_Mhd",
                "name": "(roh zo 17. novembra vľavo na Požiarnicku)",
                "id": 62
            }
        },
        {
            "type": "Feature",
            "geometry": {
                "type": "Point",
                "coordinates": [
                    21.23213,
                    49.024866
                ]
            },
            "properties": {
                "Type": "Stop_Mhd",
                "name": "Dúbrava",
                "id": 63
            }
        },
        {
            "type": "Feature",
            "geometry": {
                "type": "Point",
                "coordinates": [
                    21.243424,
                    49.0033
                ]
            },
            "properties": {
                "Type": "Stop_Mhd",
                "name": "Duklianska",
                "id": 64
            }
        },
        {
            "type": "Feature",
            "geometry": {
                "type": "Point",
                "coordinates": [
                    21.24165,
                    49.00277
                ]
            },
            "properties": {
                "Type": "Stop_Mhd",
                "name": "Duklianska",
                "id": 65
            }
        },
        {
            "type": "Feature",
            "geometry": {
                "type": "Point",
                "coordinates": [
                    21.2501,
                    49.00827
                ]
            },
            "properties": {
                "Type": "Stop_Mhd",
                "name": "Rázcestie Kúty",
                "id": 66
            }
        },
        {
            "type": "Feature",
            "geometry": {
                "type": "Point",
                "coordinates": [
                    21.258269,
                    49.010862
                ]
            },
            "properties": {
                "Type": "Stop_Mhd",
                "name": "Dopravný podnik",
                "id": 67
            }
        },
        {
            "type": "Feature",
            "geometry": {
                "type": "Point",
                "coordinates": [
                    21.257009,
                    49.010617
                ]
            },
            "properties": {
                "Type": "Stop_Mhd",
                "name": "Dopravný podnik",
                "id": 68
            }
        },
        {
            "type": "Feature",
            "geometry": {
                "type": "Point",
                "coordinates": [
                    21.27185,
                    49.01801
                ]
            },
            "properties": {
                "Type": "Stop_Mhd",
                "name": "Šarišské Lúky",
                "id": 69
            }
        },
        {
            "type": "Feature",
            "geometry": {
                "type": "Point",
                "coordinates": [
                    21.2763,
                    49.02118
                ]
            },
            "properties": {
                "Type": "Stop_Mhd",
                "name": "Vranovská",
                "id": 70
            }
        },
        {
            "type": "Feature",
            "geometry": {
                "type": "Point",
                "coordinates": [
                    21.2808,
                    49.02305
                ]
            },
            "properties": {
                "Type": "Stop_Mhd",
                "name": "Pažica",
                "id": 71
            }
        },
        {
            "type": "Feature",
            "geometry": {
                "type": "Point",
                "coordinates": [
                    21.28213,
                    49.02358
                ]
            },
            "properties": {
                "Type": "Stop_Mhd",
                "name": "Pažica",
                "id": 72
            }
        },
        {
            "type": "Feature",
            "geometry": {
                "type": "Point",
                "coordinates": [
                    21.2862,
                    49.024792
                ]
            },
            "properties": {
                "Type": "Stop_Mhd",
                "name": "Nižná Šebastová",
                "id": 73
            }
        },
        {
            "type": "Feature",
            "geometry": {
                "type": "Point",
                "coordinates": [
                    21.286496,
                    49.02488
                ]
            },
            "properties": {
                "Type": "Stop_Mhd",
                "name": "Nižná Šebastová",
                "id": 74
            }
        },
        {
            "type": "Feature",
            "geometry": {
                "type": "Point",
                "coordinates": [
                    21.2734,
                    49.019571
                ]
            },
            "properties": {
                "Type": "Stop_Mhd",
                "name": "(medzi zastávkami Vranovská a Skleník smer západ)",
                "id": 75
            }
        },
        {
            "type": "Feature",
            "geometry": {
                "type": "Point",
                "coordinates": [
                    21.2862,
                    49.025167
                ]
            },
            "properties": {
                "Type": "Stop_Mhd",
                "name": "(roh z Herlianskej vľavo na Vranovskú)",
                "id": 76
            }
        },
        {
            "type": "Feature",
            "geometry": {
                "type": "Point",
                "coordinates": [
                    21.2566,
                    48.98141
                ]
            },
            "properties": {
                "Type": "Stop_Mhd",
                "name": "Škára",
                "id": 77
            }
        },
        {
            "type": "Feature",
            "geometry": {
                "type": "Point",
                "coordinates": [
                    21.2555,
                    48.982015
                ]
            },
            "properties": {
                "Type": "Stop_Mhd",
                "name": "Škára",
                "id": 78
            }
        },
        {
            "type": "Feature",
            "geometry": {
                "type": "Point",
                "coordinates": [
                    21.250398,
                    48.9814
                ]
            },
            "properties": {
                "Type": "Stop_Mhd",
                "name": "(roh z Košickej vľavo na Východnú)",
                "id": 79
            }
        },
        {
            "type": "Feature",
            "geometry": {
                "type": "Point",
                "coordinates": [
                    21.26646,
                    48.977418
                ]
            },
            "properties": {
                "Type": "Stop_Mhd",
                "name": "Solivarská",
                "id": 80
            }
        },
        {
            "type": "Feature",
            "geometry": {
                "type": "Point",
                "coordinates": [
                    21.2653,
                    48.97738
                ]
            },
            "properties": {
                "Type": "Stop_Mhd",
                "name": "Solivarská",
                "id": 81
            }
        },
        {
            "type": "Feature",
            "geometry": {
                "type": "Point",
                "coordinates": [
                    21.27124,
                    48.97877
                ]
            },
            "properties": {
                "Type": "Stop_Mhd",
                "name": "Bohúňova",
                "id": 82
            }
        },
        {
            "type": "Feature",
            "geometry": {
                "type": "Point",
                "coordinates": [
                    21.27485,
                    48.97958
                ]
            },
            "properties": {
                "Type": "Stop_Mhd",
                "name": "Múzeum Solivar",
                "id": 83
            }
        },
        {
            "type": "Feature",
            "geometry": {
                "type": "Point",
                "coordinates": [
                    21.27434,
                    48.979439
                ]
            },
            "properties": {
                "Type": "Stop_Mhd",
                "name": "Múzeum Solivar",
                "id": 84
            }
        },
        {
            "type": "Feature",
            "geometry": {
                "type": "Point",
                "coordinates": [
                    21.27688,
                    48.97824
                ]
            },
            "properties": {
                "Type": "Stop_Mhd",
                "name": "Solivar",
                "id": 85
            }
        },
        {
            "type": "Feature",
            "geometry": {
                "type": "Point",
                "coordinates": [
                    21.250575,
                    48.98146
                ]
            },
            "properties": {
                "Type": "Stop_Mhd",
                "name": "(roh z Východnej vpravo na Košickú)",
                "id": 86
            }
        },
        {
            "type": "Feature",
            "geometry": {
                "type": "Point",
                "coordinates": [
                    21.2287,
                    49.02343
                ]
            },
            "properties": {
                "Type": "Stop_Mhd",
                "name": "Sídlisko III",
                "id": 87
            }
        },
        {
            "type": "Feature",
            "geometry": {
                "type": "Point",
                "coordinates": [
                    21.22462,
                    49.02083
                ]
            },
            "properties": {
                "Type": "Stop_Mhd",
                "name": "Prostějovská",
                "id": 88
            }
        },
        {
            "type": "Feature",
            "geometry": {
                "type": "Point",
                "coordinates": [
                    21.22335,
                    49.0169
                ]
            },
            "properties": {
                "Type": "Stop_Mhd",
                "name": "Centrum",
                "id": 89
            }
        },
        {
            "type": "Feature",
            "geometry": {
                "type": "Point",
                "coordinates": [
                    21.222172,
                    49.01056
                ]
            },
            "properties": {
                "Type": "Stop_Mhd",
                "name": "VUKOV",
                "id": 90
            }
        },
        {
            "type": "Feature",
            "geometry": {
                "type": "Point",
                "coordinates": [
                    21.22246,
                    49.01222
                ]
            },
            "properties": {
                "Type": "Stop_Mhd",
                "name": "VUKOV",
                "id": 91
            }
        },
        {
            "type": "Feature",
            "geometry": {
                "type": "Point",
                "coordinates": [
                    21.22144,
                    49.00686
                ]
            },
            "properties": {
                "Type": "Stop_Mhd",
                "name": "Námestie Kráľovnej pokoja",
                "id": 92
            }
        },
        {
            "type": "Feature",
            "geometry": {
                "type": "Point",
                "coordinates": [
                    21.220938,
                    49.00415
                ]
            },
            "properties": {
                "Type": "Stop_Mhd",
                "name": "Volgogradská",
                "id": 93
            }
        },
        {
            "type": "Feature",
            "geometry": {
                "type": "Point",
                "coordinates": [
                    21.22086,
                    49.00366
                ]
            },
            "properties": {
                "Type": "Stop_Mhd",
                "name": "Volgogradská",
                "id": 94
            }
        },
        {
            "type": "Feature",
            "geometry": {
                "type": "Point",
                "coordinates": [
                    21.224,
                    49.001743
                ]
            },
            "properties": {
                "Type": "Stop_Mhd",
                "name": "Clementisova",
                "id": 95
            }
        },
        {
            "type": "Feature",
            "geometry": {
                "type": "Point",
                "coordinates": [
                    21.22442,
                    49.00162
                ]
            },
            "properties": {
                "Type": "Stop_Mhd",
                "name": "Clementisova",
                "id": 96
            }
        },
        {
            "type": "Feature",
            "geometry": {
                "type": "Point",
                "coordinates": [
                    21.226986,
                    48.99972
                ]
            },
            "properties": {
                "Type": "Stop_Mhd",
                "name": "(roh z Clementisovej vľavo na Levočskú)",
                "id": 97
            }
        },
        {
            "type": "Feature",
            "geometry": {
                "type": "Point",
                "coordinates": [
                    21.26404,
                    48.97935
                ]
            },
            "properties": {
                "Type": "Stop_Mhd",
                "name": "Lesnícka",
                "id": 98
            }
        },
        {
            "type": "Feature",
            "geometry": {
                "type": "Point",
                "coordinates": [
                    21.263872,
                    48.97888
                ]
            },
            "properties": {
                "Type": "Stop_Mhd",
                "name": "Lesnícka",
                "id": 99
            }
        },
        {
            "type": "Feature",
            "geometry": {
                "type": "Point",
                "coordinates": [
                    21.2638,
                    48.98379
                ]
            },
            "properties": {
                "Type": "Stop_Mhd",
                "name": "Pavla Horova",
                "id": 100
            }
        },
        {
            "type": "Feature",
            "geometry": {
                "type": "Point",
                "coordinates": [
                    21.263612,
                    48.9838
                ]
            },
            "properties": {
                "Type": "Stop_Mhd",
                "name": "Pavla Horova",
                "id": 101
            }
        },
        {
            "type": "Feature",
            "geometry": {
                "type": "Point",
                "coordinates": [
                    21.264588,
                    48.98716
                ]
            },
            "properties": {
                "Type": "Stop_Mhd",
                "name": "Martina Benku",
                "id": 102
            }
        },
        {
            "type": "Feature",
            "geometry": {
                "type": "Point",
                "coordinates": [
                    21.2644,
                    48.98705
                ]
            },
            "properties": {
                "Type": "Stop_Mhd",
                "name": "Martina Benku",
                "id": 103
            }
        },
        {
            "type": "Feature",
            "geometry": {
                "type": "Point",
                "coordinates": [
                    21.26745,
                    48.98967
                ]
            },
            "properties": {
                "Type": "Stop_Mhd",
                "name": "Laca Novomeského",
                "id": 104
            }
        },
        {
            "type": "Feature",
            "geometry": {
                "type": "Point",
                "coordinates": [
                    21.266882,
                    48.99013
                ]
            },
            "properties": {
                "Type": "Stop_Mhd",
                "name": "Laca Novomeského",
                "id": 105
            }
        },
        {
            "type": "Feature",
            "geometry": {
                "type": "Point",
                "coordinates": [
                    21.27123,
                    48.99196
                ]
            },
            "properties": {
                "Type": "Stop_Mhd",
                "name": "Vansovej",
                "id": 106
            }
        },
        {
            "type": "Feature",
            "geometry": {
                "type": "Point",
                "coordinates": [
                    21.27555,
                    48.99349
                ]
            },
            "properties": {
                "Type": "Stop_Mhd",
                "name": "Pod Šalgovíkom",
                "id": 107
            }
        },
        {
            "type": "Feature",
            "geometry": {
                "type": "Point",
                "coordinates": [
                    21.26611,
                    49.01713
                ]
            },
            "properties": {
                "Type": "Stop_Mhd",
                "name": "Ľubochnianska",
                "id": 108
            }
        },
        {
            "type": "Feature",
            "geometry": {
                "type": "Point",
                "coordinates": [
                    21.26591,
                    49.0201
                ]
            },
            "properties": {
                "Type": "Stop_Mhd",
                "name": "Strojnícka",
                "id": 109
            }
        },
        {
            "type": "Feature",
            "geometry": {
                "type": "Point",
                "coordinates": [
                    21.266469,
                    49.02294
                ]
            },
            "properties": {
                "Type": "Stop_Mhd",
                "name": "Družstevná",
                "id": 110
            }
        },
        {
            "type": "Feature",
            "geometry": {
                "type": "Point",
                "coordinates": [
                    21.26711,
                    49.02508
                ]
            },
            "properties": {
                "Type": "Stop_Mhd",
                "name": "Širpo",
                "id": 111
            }
        },
        {
            "type": "Feature",
            "geometry": {
                "type": "Point",
                "coordinates": [
                    21.26697,
                    49.025337
                ]
            },
            "properties": {
                "Type": "Stop_Mhd",
                "name": "(zo zastávky Širpo okolo Ekoprimu)",
                "id": 112
            }
        },
        {
            "type": "Feature",
            "geometry": {
                "type": "Point",
                "coordinates": [
                    21.268287,
                    48.99435
                ]
            },
            "properties": {
                "Type": "Stop_Mhd",
                "name": "Jurkovičova",
                "id": 113
            }
        },
        {
            "type": "Feature",
            "geometry": {
                "type": "Point",
                "coordinates": [
                    21.267538,
                    48.99385
                ]
            },
            "properties": {
                "Type": "Stop_Mhd",
                "name": "Jurkovičova",
                "id": 114
            }
        },
        {
            "type": "Feature",
            "geometry": {
                "type": "Point",
                "coordinates": [
                    21.269927,
                    48.99723
                ]
            },
            "properties": {
                "Type": "Stop_Mhd",
                "name": "Karpatská",
                "id": 115
            }
        },
        {
            "type": "Feature",
            "geometry": {
                "type": "Point",
                "coordinates": [
                    21.269338,
                    48.99617
                ]
            },
            "properties": {
                "Type": "Stop_Mhd",
                "name": "Karpatská",
                "id": 116
            }
        },
        {
            "type": "Feature",
            "geometry": {
                "type": "Point",
                "coordinates": [
                    21.272418,
                    49.00096
                ]
            },
            "properties": {
                "Type": "Stop_Mhd",
                "name": "Sibírska",
                "id": 117
            }
        },
        {
            "type": "Feature",
            "geometry": {
                "type": "Point",
                "coordinates": [
                    21.269322,
                    49.0003
                ]
            },
            "properties": {
                "Type": "Stop_Mhd",
                "name": "(roh z Vihorlatskej vľavo na Arm. gen. Svobodu)",
                "id": 118
            }
        },
        {
            "type": "Feature",
            "geometry": {
                "type": "Point",
                "coordinates": [
                    21.251195,
                    48.97864
                ]
            },
            "properties": {
                "Type": "Stop_Mhd",
                "name": "Nový Solivar",
                "id": 119
            }
        },
        {
            "type": "Feature",
            "geometry": {
                "type": "Point",
                "coordinates": [
                    21.25285,
                    48.97276
                ]
            },
            "properties": {
                "Type": "Stop_Mhd",
                "name": "Košická",
                "id": 121
            }
        },
        {
            "type": "Feature",
            "geometry": {
                "type": "Point",
                "coordinates": [
                    21.25294,
                    48.970947
                ]
            },
            "properties": {
                "Type": "Stop_Mhd",
                "name": "Košická",
                "id": 122
            }
        },
        {
            "type": "Feature",
            "geometry": {
                "type": "Point",
                "coordinates": [
                    21.25745,
                    48.95544
                ]
            },
            "properties": {
                "Type": "Stop_Mhd",
                "name": "Petrovianska",
                "id": 124
            }
        },
        {
            "type": "Feature",
            "geometry": {
                "type": "Point",
                "coordinates": [
                    21.256854,
                    48.9593
                ]
            },
            "properties": {
                "Type": "Stop_Mhd",
                "name": "Petrovianska",
                "id": 125
            }
        },
        {
            "type": "Feature",
            "geometry": {
                "type": "Point",
                "coordinates": [
                    21.24598,
                    48.99235
                ]
            },
            "properties": {
                "Type": "Stop_Mhd",
                "name": "Kapitána Nálepku",
                "id": 126
            }
        },
        {
            "type": "Feature",
            "geometry": {
                "type": "Point",
                "coordinates": [
                    21.244385,
                    48.99286
                ]
            },
            "properties": {
                "Type": "Stop_Mhd",
                "name": "(roh z Grešovej vľavo na Masarykovu)",
                "id": 127
            }
        },
        {
            "type": "Feature",
            "geometry": {
                "type": "Point",
                "coordinates": [
                    21.25519,
                    48.970473
                ]
            },
            "properties": {
                "Type": "Stop_Mhd",
                "name": "Chalupkova",
                "id": 128
            }
        },
        {
            "type": "Feature",
            "geometry": {
                "type": "Point",
                "coordinates": [
                    21.25887,
                    48.971291
                ]
            },
            "properties": {
                "Type": "Stop_Mhd",
                "name": "Švábska",
                "id": 129
            }
        },
        {
            "type": "Feature",
            "geometry": {
                "type": "Point",
                "coordinates": [
                    21.262121,
                    48.97421
                ]
            },
            "properties": {
                "Type": "Stop_Mhd",
                "name": "Lomnická",
                "id": 130
            }
        },
        {
            "type": "Feature",
            "geometry": {
                "type": "Point",
                "coordinates": [
                    21.25048,
                    48.9817
                ]
            },
            "properties": {
                "Type": "Stop_Mhd",
                "name": "(medzi zastávkami Košická a Nový Solivar smer sever)",
                "id": 131
            }
        },
        {
            "type": "Feature",
            "geometry": {
                "type": "Point",
                "coordinates": [
                    21.21158,
                    49.0078
                ]
            },
            "properties": {
                "Type": "Stop_Mhd",
                "name": "Na Rúrkach",
                "id": 132
            }
        },
        {
            "type": "Feature",
            "geometry": {
                "type": "Point",
                "coordinates": [
                    21.214687,
                    49.00507
                ]
            },
            "properties": {
                "Type": "Stop_Mhd",
                "name": "Jána Béreša",
                "id": 133
            }
        },
        {
            "type": "Feature",
            "geometry": {
                "type": "Point",
                "coordinates": [
                    21.216365,
                    49.003245
                ]
            },
            "properties": {
                "Type": "Stop_Mhd",
                "name": "Rázcestie Rúrky",
                "id": 134
            }
        },
        {
            "type": "Feature",
            "geometry": {
                "type": "Point",
                "coordinates": [
                    21.224067,
                    49.00052
                ]
            },
            "properties": {
                "Type": "Stop_Mhd",
                "name": "Levočská",
                "id": 135
            }
        },
        {
            "type": "Feature",
            "geometry": {
                "type": "Point",
                "coordinates": [
                    21.223205,
                    49.00095
                ]
            },
            "properties": {
                "Type": "Stop_Mhd",
                "name": "Levočská",
                "id": 136
            }
        },
        {
            "type": "Feature",
            "geometry": {
                "type": "Point",
                "coordinates": [
                    21.23772,
                    48.9851
                ]
            },
            "properties": {
                "Type": "Stop_Mhd",
                "name": "Mestská hala",
                "id": 137
            }
        },
        {
            "type": "Feature",
            "geometry": {
                "type": "Point",
                "coordinates": [
                    21.2367,
                    48.98438
                ]
            },
            "properties": {
                "Type": "Stop_Mhd",
                "name": "Mestská hala",
                "id": 138
            }
        },
        {
            "type": "Feature",
            "geometry": {
                "type": "Point",
                "coordinates": [
                    21.232845,
                    48.9836
                ]
            },
            "properties": {
                "Type": "Stop_Mhd",
                "name": "Pod Kamennou baňou",
                "id": 139
            }
        },
        {
            "type": "Feature",
            "geometry": {
                "type": "Point",
                "coordinates": [
                    21.2339,
                    48.98335
                ]
            },
            "properties": {
                "Type": "Stop_Mhd",
                "name": "Pod Kamennou baňou",
                "id": 140
            }
        },
        {
            "type": "Feature",
            "geometry": {
                "type": "Point",
                "coordinates": [
                    21.2275,
                    48.98611
                ]
            },
            "properties": {
                "Type": "Stop_Mhd",
                "name": "Slávičia",
                "id": 141
            }
        },
        {
            "type": "Feature",
            "geometry": {
                "type": "Point",
                "coordinates": [
                    21.227093,
                    48.98632
                ]
            },
            "properties": {
                "Type": "Stop_Mhd",
                "name": "Slávičia",
                "id": 142
            }
        },
        {
            "type": "Feature",
            "geometry": {
                "type": "Point",
                "coordinates": [
                    21.225,
                    48.987158
                ]
            },
            "properties": {
                "Type": "Stop_Mhd",
                "name": "Ku Brezinám",
                "id": 143
            }
        },
        {
            "type": "Feature",
            "geometry": {
                "type": "Point",
                "coordinates": [
                    21.2217,
                    48.98847
                ]
            },
            "properties": {
                "Type": "Stop_Mhd",
                "name": "Súľovská",
                "id": 144
            }
        },
        {
            "type": "Feature",
            "geometry": {
                "type": "Point",
                "coordinates": [
                    21.21563,
                    48.98855
                ]
            },
            "properties": {
                "Type": "Stop_Mhd",
                "name": "Terchovská",
                "id": 145
            }
        },
        {
            "type": "Feature",
            "geometry": {
                "type": "Point",
                "coordinates": [
                    21.23764,
                    49.02483
                ]
            },
            "properties": {
                "Type": "Stop_Mhd",
                "name": "Jánošíkova",
                "id": 146
            }
        },
        {
            "type": "Feature",
            "geometry": {
                "type": "Point",
                "coordinates": [
                    21.23794,
                    49.02634
                ]
            },
            "properties": {
                "Type": "Stop_Mhd",
                "name": "Jánošíkova",
                "id": 147
            }
        },
        {
            "type": "Feature",
            "geometry": {
                "type": "Point",
                "coordinates": [
                    21.24043,
                    49.030005
                ]
            },
            "properties": {
                "Type": "Stop_Mhd",
                "name": "Šidlovská",
                "id": 148
            }
        },
        {
            "type": "Feature",
            "geometry": {
                "type": "Point",
                "coordinates": [
                    21.2354,
                    49.031028
                ]
            },
            "properties": {
                "Type": "Stop_Mhd",
                "name": "Dúbravská",
                "id": 149
            }
        },
        {
            "type": "Feature",
            "geometry": {
                "type": "Point",
                "coordinates": [
                    21.2325,
                    49.02495
                ]
            },
            "properties": {
                "Type": "Stop_Mhd",
                "name": "Dúbrava",
                "id": 150
            }
        },
        {
            "type": "Feature",
            "geometry": {
                "type": "Point",
                "coordinates": [
                    21.23493,
                    49.0287
                ]
            },
            "properties": {
                "Type": "Stop_Mhd",
                "name": "Pri kaplnke",
                "id": 151
            }
        },
        {
            "type": "Feature",
            "geometry": {
                "type": "Point",
                "coordinates": [
                    21.2317,
                    49.0249
                ]
            },
            "properties": {
                "Type": "Stop_Mhd",
                "name": "(roh z Dúbravy vľavo na Sabinovskú)",
                "id": 152
            }
        },
        {
            "type": "Feature",
            "geometry": {
                "type": "Point",
                "coordinates": [
                    21.22061,
                    48.99955
                ]
            },
            "properties": {
                "Type": "Stop_Mhd",
                "name": "Marka Čulena",
                "id": 153
            }
        },
        {
            "type": "Feature",
            "geometry": {
                "type": "Point",
                "coordinates": [
                    21.2305,
                    48.99311
                ]
            },
            "properties": {
                "Type": "Stop_Mhd",
                "name": "(roh z Kollárovej vľavo na Obrancov mieru)",
                "id": 154
            }
        },
        {
            "type": "Feature",
            "geometry": {
                "type": "Point",
                "coordinates": [
                    21.23517,
                    48.99523
                ]
            },
            "properties": {
                "Type": "Stop_Mhd",
                "name": "Gymnázium sv. Moniky",
                "id": 155
            }
        },
        {
            "type": "Feature",
            "geometry": {
                "type": "Point",
                "coordinates": [
                    21.23838,
                    48.99178
                ]
            },
            "properties": {
                "Type": "Stop_Mhd",
                "name": "Kúpeľná",
                "id": 156
            }
        },
        {
            "type": "Feature",
            "geometry": {
                "type": "Point",
                "coordinates": [
                    21.2409,
                    48.9902
                ]
            },
            "properties": {
                "Type": "Stop_Mhd",
                "name": "Pavlovičovo námestie",
                "id": 157
            }
        },
        {
            "type": "Feature",
            "geometry": {
                "type": "Point",
                "coordinates": [
                    21.24651,
                    49.00425
                ]
            },
            "properties": {
                "Type": "Stop_Mhd",
                "name": "Šafárikova, cintorín",
                "id": 158
            }
        },
        {
            "type": "Feature",
            "geometry": {
                "type": "Point",
                "coordinates": [
                    21.2484,
                    48.99384
                ]
            },
            "properties": {
                "Type": "Stop_Mhd",
                "name": "(roh z Jána Hollého vľavo na Lesík delostrelcov)",
                "id": 159
            }
        },
        {
            "type": "Feature",
            "geometry": {
                "type": "Point",
                "coordinates": [
                    21.24957,
                    48.99244
                ]
            },
            "properties": {
                "Type": "Stop_Mhd",
                "name": "Lesík delostrelcov",
                "id": 160
            }
        },
        {
            "type": "Feature",
            "geometry": {
                "type": "Point",
                "coordinates": [
                    21.26272,
                    48.991275
                ]
            },
            "properties": {
                "Type": "Stop_Mhd",
                "name": "Rusínska",
                "id": 161
            }
        },
        {
            "type": "Feature",
            "geometry": {
                "type": "Point",
                "coordinates": [
                    21.26272,
                    48.99134
                ]
            },
            "properties": {
                "Type": "Stop_Mhd",
                "name": "Rusínska",
                "id": 162
            }
        },
        {
            "type": "Feature",
            "geometry": {
                "type": "Point",
                "coordinates": [
                    21.250798,
                    48.99025
                ]
            },
            "properties": {
                "Type": "Stop_Mhd",
                "name": "(roh z Lesíka delostrelcov vľavo na Rusínsku)",
                "id": 163
            }
        },
        {
            "type": "Feature",
            "geometry": {
                "type": "Point",
                "coordinates": [
                    21.26482,
                    48.99314
                ]
            },
            "properties": {
                "Type": "Stop_Mhd",
                "name": "Vyšné lúky",
                "id": 164
            }
        },
        {
            "type": "Feature",
            "geometry": {
                "type": "Point",
                "coordinates": [
                    21.26573,
                    48.99308
                ]
            },
            "properties": {
                "Type": "Stop_Mhd",
                "name": "Vyšné lúky",
                "id": 165
            }
        },
        {
            "type": "Feature",
            "geometry": {
                "type": "Point",
                "coordinates": [
                    21.2586,
                    48.99311
                ]
            },
            "properties": {
                "Type": "Stop_Mhd",
                "name": "Nižné lúky",
                "id": 166
            }
        },
        {
            "type": "Feature",
            "geometry": {
                "type": "Point",
                "coordinates": [
                    21.25147,
                    48.99138
                ]
            },
            "properties": {
                "Type": "Stop_Mhd",
                "name": "Pod Táborom",
                "id": 167
            }
        },
        {
            "type": "Feature",
            "geometry": {
                "type": "Point",
                "coordinates": [
                    21.25253,
                    48.99204
                ]
            },
            "properties": {
                "Type": "Stop_Mhd",
                "name": "Pod Táborom",
                "id": 168
            }
        },
        {
            "type": "Feature",
            "geometry": {
                "type": "Point",
                "coordinates": [
                    21.26687,
                    48.99305
                ]
            },
            "properties": {
                "Type": "Stop_Mhd",
                "name": "(roh z Arm. gen. Svobodu vpravo na Pod Táborom)",
                "id": 169
            }
        },
        {
            "type": "Feature",
            "geometry": {
                "type": "Point",
                "coordinates": [
                    21.24867,
                    48.9938
                ]
            },
            "properties": {
                "Type": "Stop_Mhd",
                "name": "(roh z Lesíka delostrelcov vpravo na Jána Hollého)",
                "id": 170
            }
        },
        {
            "type": "Feature",
            "geometry": {
                "type": "Point",
                "coordinates": [
                    21.24273,
                    49.00147
                ]
            },
            "properties": {
                "Type": "Stop_Mhd",
                "name": "Vajanského",
                "id": 171
            }
        },
        {
            "type": "Feature",
            "geometry": {
                "type": "Point",
                "coordinates": [
                    21.242463,
                    49.00298
                ]
            },
            "properties": {
                "Type": "Stop_Mhd",
                "name": "(roh z Vajanského vľavo na Námestie mieru)",
                "id": 172
            }
        },
        {
            "type": "Feature",
            "geometry": {
                "type": "Point",
                "coordinates": [
                    21.246,
                    48.990746
                ]
            },
            "properties": {
                "Type": "Stop_Mhd",
                "name": "(roh z Masarykovej vpravo na Partizánsku)",
                "id": 173
            }
        },
        {
            "type": "Feature",
            "geometry": {
                "type": "Point",
                "coordinates": [
                    21.311855,
                    48.989919
                ]
            },
            "properties": {
                "Type": "Stop_Mhd",
                "name": "Teriakovce",
                "id": 174
            }
        },
        {
            "type": "Feature",
            "geometry": {
                "type": "Point",
                "coordinates": [
                    21.31181,
                    48.989881
                ]
            },
            "properties": {
                "Type": "Stop_Mhd",
                "name": "Teriakovce",
                "id": 175
            }
        },
        {
            "type": "Feature",
            "geometry": {
                "type": "Point",
                "coordinates": [
                    21.308823,
                    48.990585
                ]
            },
            "properties": {
                "Type": "Stop_Mhd",
                "name": "OcÚ Teriakovce",
                "id": 176
            }
        },
        {
            "type": "Feature",
            "geometry": {
                "type": "Point",
                "coordinates": [
                    21.30443,
                    48.99083
                ]
            },
            "properties": {
                "Type": "Stop_Mhd",
                "name": "Na Kruhu",
                "id": 177
            }
        },
        {
            "type": "Feature",
            "geometry": {
                "type": "Point",
                "coordinates": [
                    21.30208,
                    48.99102
                ]
            },
            "properties": {
                "Type": "Stop_Mhd",
                "name": "Rázcestie Teriakovce",
                "id": 178
            }
        },
        {
            "type": "Feature",
            "geometry": {
                "type": "Point",
                "coordinates": [
                    21.30177,
                    48.99111
                ]
            },
            "properties": {
                "Type": "Stop_Mhd",
                "name": "Rázcestie Teriakovce",
                "id": 179
            }
        },
        {
            "type": "Feature",
            "geometry": {
                "type": "Point",
                "coordinates": [
                    21.28852,
                    48.99215
                ]
            },
            "properties": {
                "Type": "Stop_Mhd",
                "name": "Labutia",
                "id": 180
            }
        },
        {
            "type": "Feature",
            "geometry": {
                "type": "Point",
                "coordinates": [
                    21.287643,
                    48.996308
                ]
            },
            "properties": {
                "Type": "Stop_Mhd",
                "name": "Šalgovík",
                "id": 181
            }
        },
        {
            "type": "Feature",
            "geometry": {
                "type": "Point",
                "coordinates": [
                    21.28737,
                    48.996847
                ]
            },
            "properties": {
                "Type": "Stop_Mhd",
                "name": "Šalgovík",
                "id": 182
            }
        },
        {
            "type": "Feature",
            "geometry": {
                "type": "Point",
                "coordinates": [
                    21.28469,
                    48.996463
                ]
            },
            "properties": {
                "Type": "Stop_Mhd",
                "name": "Kamenná",
                "id": 183
            }
        },
        {
            "type": "Feature",
            "geometry": {
                "type": "Point",
                "coordinates": [
                    21.28393,
                    48.995229
                ]
            },
            "properties": {
                "Type": "Stop_Mhd",
                "name": "Hruny",
                "id": 184
            }
        },
        {
            "type": "Feature",
            "geometry": {
                "type": "Point",
                "coordinates": [
                    21.281807,
                    48.994878
                ]
            },
            "properties": {
                "Type": "Stop_Mhd",
                "name": "Hruny",
                "id": 185
            }
        },
        {
            "type": "Feature",
            "geometry": {
                "type": "Point",
                "coordinates": [
                    21.278883,
                    48.994019
                ]
            },
            "properties": {
                "Type": "Stop_Mhd",
                "name": "Sekčovská",
                "id": 186
            }
        },
        {
            "type": "Feature",
            "geometry": {
                "type": "Point",
                "coordinates": [
                    21.24273,
                    49.03206
                ]
            },
            "properties": {
                "Type": "Stop_Mhd",
                "name": "Jahodová",
                "id": 188
            }
        },
        {
            "type": "Feature",
            "geometry": {
                "type": "Point",
                "coordinates": [
                    21.2481,
                    49.03283
                ]
            },
            "properties": {
                "Type": "Stop_Mhd",
                "name": "Šidlovec",
                "id": 189
            }
        },
        {
            "type": "Feature",
            "geometry": {
                "type": "Point",
                "coordinates": [
                    21.24175,
                    49.03301
                ]
            },
            "properties": {
                "Type": "Stop_Mhd",
                "name": "Stavbárska",
                "id": 190
            }
        },
        {
            "type": "Feature",
            "geometry": {
                "type": "Point",
                "coordinates": [
                    21.2487,
                    48.99128
                ]
            },
            "properties": {
                "Type": "Stop_Mhd",
                "name": "Plzenská",
                "id": 191
            }
        },
        {
            "type": "Feature",
            "geometry": {
                "type": "Point",
                "coordinates": [
                    21.25331,
                    48.970006
                ]
            },
            "properties": {
                "Type": "Stop_Mhd",
                "name": "(medzi zastávkami Košická a Chalupkova smer juh)",
                "id": 192
            }
        },
        {
            "type": "Feature",
            "geometry": {
                "type": "Point",
                "coordinates": [
                    21.22897,
                    49.02358
                ]
            },
            "properties": {
                "Type": "Stop_Mhd",
                "name": "Sídlisko III",
                "id": 193
            }
        },
        {
            "type": "Feature",
            "geometry": {
                "type": "Point",
                "coordinates": [
                    21.25029,
                    48.982445
                ]
            },
            "properties": {
                "Type": "Stop_Mhd",
                "name": "(medzi zastávkami Nový Solivar a Železničná stanica smer sever)",
                "id": 194
            }
        },
        {
            "type": "Feature",
            "geometry": {
                "type": "Point",
                "coordinates": [
                    21.26474,
                    49.012646
                ]
            },
            "properties": {
                "Type": "Stop_Mhd",
                "name": "(medzi zastávkami Dopr. podnik Ľubochnianska smer sever)",
                "id": 195
            }
        },
        {
            "type": "Feature",
            "geometry": {
                "type": "Point",
                "coordinates": [
                    21.27428,
                    48.98138
                ]
            },
            "properties": {
                "Type": "Stop_Mhd",
                "name": "Kukučínova",
                "id": 196
            }
        },
        {
            "type": "Feature",
            "geometry": {
                "type": "Point",
                "coordinates": [
                    21.27289,
                    48.98447
                ]
            },
            "properties": {
                "Type": "Stop_Mhd",
                "name": "Kysucká",
                "id": 197
            }
        },
        {
            "type": "Feature",
            "geometry": {
                "type": "Point",
                "coordinates": [
                    21.24667,
                    48.992551
                ]
            },
            "properties": {
                "Type": "Stop_Mhd",
                "name": "Kapitána Nálepku",
                "id": 198
            }
        },
        {
            "type": "Feature",
            "geometry": {
                "type": "Point",
                "coordinates": [
                    21.248446,
                    48.991234
                ]
            },
            "properties": {
                "Type": "Stop_Mhd",
                "name": "(medzi zastávkami Čierny most a Kapitána Nálepku)",
                "id": 199
            }
        },
        {
            "type": "Feature",
            "geometry": {
                "type": "Point",
                "coordinates": [
                    21.241684,
                    49.006306
                ]
            },
            "properties": {
                "Type": "Stop_Mhd",
                "name": "Veselá",
                "id": 200
            }
        },
        {
            "type": "Feature",
            "geometry": {
                "type": "Point",
                "coordinates": [
                    21.248198,
                    49.008609
                ]
            },
            "properties": {
                "Type": "Stop_Mhd",
                "name": "K Surdoku",
                "id": 202
            }
        },
        {
            "type": "Feature",
            "geometry": {
                "type": "Point",
                "coordinates": [
                    21.24741,
                    49.01068
                ]
            },
            "properties": {
                "Type": "Stop_Mhd",
                "name": "Pod Šibeňou",
                "id": 203
            }
        },
        {
            "type": "Feature",
            "geometry": {
                "type": "Point",
                "coordinates": [
                    21.247846,
                    49.014401
                ]
            },
            "properties": {
                "Type": "Stop_Mhd",
                "name": "Koryto",
                "id": 204
            }
        },
        {
            "type": "Feature",
            "geometry": {
                "type": "Point",
                "coordinates": [
                    21.24802,
                    49.01468
                ]
            },
            "properties": {
                "Type": "Stop_Mhd",
                "name": "Koryto",
                "id": 205
            }
        },
        {
            "type": "Feature",
            "geometry": {
                "type": "Point",
                "coordinates": [
                    21.25033,
                    49.0194
                ]
            },
            "properties": {
                "Type": "Stop_Mhd",
                "name": "Rybníčky",
                "id": 206
            }
        },
        {
            "type": "Feature",
            "geometry": {
                "type": "Point",
                "coordinates": [
                    21.25249,
                    49.0224
                ]
            },
            "properties": {
                "Type": "Stop_Mhd",
                "name": "Kúty",
                "id": 207
            }
        },
        {
            "type": "Feature",
            "geometry": {
                "type": "Point",
                "coordinates": [
                    21.25319,
                    49.0256
                ]
            },
            "properties": {
                "Type": "Stop_Mhd",
                "name": "Za Kútami",
                "id": 208
            }
        },
        {
            "type": "Feature",
            "geometry": {
                "type": "Point",
                "coordinates": [
                    21.25793,
                    49.02675
                ]
            },
            "properties": {
                "Type": "Stop_Mhd",
                "name": "Plachty",
                "id": 209
            }
        },
        {
            "type": "Feature",
            "geometry": {
                "type": "Point",
                "coordinates": [
                    21.25769,
                    49.02714
                ]
            },
            "properties": {
                "Type": "Stop_Mhd",
                "name": "Plachty",
                "id": 210
            }
        },
        {
            "type": "Feature",
            "geometry": {
                "type": "Point",
                "coordinates": [
                    21.25578,
                    49.03074
                ]
            },
            "properties": {
                "Type": "Stop_Mhd",
                "name": "Pred Surdokom",
                "id": 211
            }
        },
        {
            "type": "Feature",
            "geometry": {
                "type": "Point",
                "coordinates": [
                    21.25581,
                    49.03109
                ]
            },
            "properties": {
                "Type": "Stop_Mhd",
                "name": "Pred Surdokom",
                "id": 212
            }
        },
        {
            "type": "Feature",
            "geometry": {
                "type": "Point",
                "coordinates": [
                    21.25827,
                    49.03435
                ]
            },
            "properties": {
                "Type": "Stop_Mhd",
                "name": "Surdok",
                "id": 213
            }
        },
        {
            "type": "Feature",
            "geometry": {
                "type": "Point",
                "coordinates": [
                    21.25231,
                    49.00246
                ]
            },
            "properties": {
                "Type": "Stop_Mhd",
                "name": "Hviezdna",
                "id": 214
            }
        },
        {
            "type": "Feature",
            "geometry": {
                "type": "Point",
                "coordinates": [
                    21.24889,
                    49.00236
                ]
            },
            "properties": {
                "Type": "Stop_Mhd",
                "name": "Vodárenská",
                "id": 215
            }
        },
        {
            "type": "Feature",
            "geometry": {
                "type": "Point",
                "coordinates": [
                    21.24933,
                    49.00238
                ]
            },
            "properties": {
                "Type": "Stop_Mhd",
                "name": "Vodárenská",
                "id": 216
            }
        },
        {
            "type": "Feature",
            "geometry": {
                "type": "Point",
                "coordinates": [
                    21.245984,
                    48.976339
                ]
            },
            "properties": {
                "Type": "Stop_Mhd",
                "name": "Jilemnického",
                "id": 217
            }
        },
        {
            "type": "Feature",
            "geometry": {
                "type": "Point",
                "coordinates": [
                    21.24547,
                    48.97629
                ]
            },
            "properties": {
                "Type": "Stop_Mhd",
                "name": "Jilemnického",
                "id": 218
            }
        },
        {
            "type": "Feature",
            "geometry": {
                "type": "Point",
                "coordinates": [
                    21.24374,
                    48.97192
                ]
            },
            "properties": {
                "Type": "Stop_Mhd",
                "name": "Pod Wilec hôrkou",
                "id": 219
            }
        },
        {
            "type": "Feature",
            "geometry": {
                "type": "Point",
                "coordinates": [
                    21.24413,
                    48.9681
                ]
            },
            "properties": {
                "Type": "Stop_Mhd",
                "name": "Wilecova hôrka",
                "id": 220
            }
        },
        {
            "type": "Feature",
            "geometry": {
                "type": "Point",
                "coordinates": [
                    21.23969,
                    48.96313
                ]
            },
            "properties": {
                "Type": "Stop_Mhd",
                "name": "Kamenná baňa",
                "id": 221
            }
        },
        {
            "type": "Feature",
            "geometry": {
                "type": "Point",
                "coordinates": [
                    21.236307,
                    48.958703
                ]
            },
            "properties": {
                "Type": "Stop_Mhd",
                "name": "Borkút",
                "id": 222
            }
        },
        {
            "type": "Feature",
            "geometry": {
                "type": "Point",
                "coordinates": [
                    21.244444,
                    48.977457
                ]
            },
            "properties": {
                "Type": "Stop_Mhd",
                "name": "Budovateľská",
                "id": 223
            }
        },
        {
            "type": "Feature",
            "geometry": {
                "type": "Point",
                "coordinates": [
                    21.244682,
                    48.976278
                ]
            },
            "properties": {
                "Type": "Stop_Mhd",
                "name": "(roh Budovateľská x Jilemnického)",
                "id": 224
            }
        },
        {
            "type": "Feature",
            "geometry": {
                "type": "Point",
                "coordinates": [
                    21.27965,
                    48.98207
                ]
            },
            "properties": {
                "Type": "Stop_Mhd",
                "name": "Soľnobanská",
                "id": 225
            }
        },
        {
            "type": "Feature",
            "geometry": {
                "type": "Point",
                "coordinates": [
                    21.28876,
                    48.98133
                ]
            },
            "properties": {
                "Type": "Stop_Mhd",
                "name": "Záhradky",
                "id": 226
            }
        },
        {
            "type": "Feature",
            "geometry": {
                "type": "Point",
                "coordinates": [
                    21.31936,
                    48.97782
                ]
            },
            "properties": {
                "Type": "Stop_Mhd",
                "name": "Pri zámočku",
                "id": 227
            }
        },
        {
            "type": "Feature",
            "geometry": {
                "type": "Point",
                "coordinates": [
                    21.31899,
                    48.9778
                ]
            },
            "properties": {
                "Type": "Stop_Mhd",
                "name": "Pri zámočku",
                "id": 228
            }
        },
        {
            "type": "Feature",
            "geometry": {
                "type": "Point",
                "coordinates": [
                    21.32411,
                    48.97779
                ]
            },
            "properties": {
                "Type": "Stop_Mhd",
                "name": "Na Záhumní",
                "id": 229
            }
        },
        {
            "type": "Feature",
            "geometry": {
                "type": "Point",
                "coordinates": [
                    21.32445,
                    48.97781
                ]
            },
            "properties": {
                "Type": "Stop_Mhd",
                "name": "Na Záhumní",
                "id": 230
            }
        },
        {
            "type": "Feature",
            "geometry": {
                "type": "Point",
                "coordinates": [
                    21.32764,
                    48.97918
                ]
            },
            "properties": {
                "Type": "Stop_Mhd",
                "name": "Hulica",
                "id": 231
            }
        },
        {
            "type": "Feature",
            "geometry": {
                "type": "Point",
                "coordinates": [
                    21.32781,
                    48.97933
                ]
            },
            "properties": {
                "Type": "Stop_Mhd",
                "name": "Hulica",
                "id": 232
            }
        },
        {
            "type": "Feature",
            "geometry": {
                "type": "Point",
                "coordinates": [
                    21.33341,
                    48.97812
                ]
            },
            "properties": {
                "Type": "Stop_Mhd",
                "name": "Ruská Nová Ves",
                "id": 233
            }
        },
        {
            "type": "Feature",
            "geometry": {
                "type": "Point",
                "coordinates": [
                    21.275965,
                    48.979835
                ]
            },
            "properties": {
                "Type": "Stop_Mhd",
                "name": "(medzi zastávkami Soľnobanská a Solivar)",
                "id": 234
            }
        },
        {
            "type": "Feature",
            "geometry": {
                "type": "Point",
                "coordinates": [
                    21.23029,
                    49.06582
                ]
            },
            "properties": {
                "Type": "Stop_Mhd",
                "name": "Kanaš - Stráže",
                "id": 235
            }
        },
        {
            "type": "Feature",
            "geometry": {
                "type": "Point",
                "coordinates": [
                    21.22812,
                    49.06121
                ]
            },
            "properties": {
                "Type": "Stop_Mhd",
                "name": "Stará škola",
                "id": 236
            }
        },
        {
            "type": "Feature",
            "geometry": {
                "type": "Point",
                "coordinates": [
                    21.23043,
                    49.05824
                ]
            },
            "properties": {
                "Type": "Stop_Mhd",
                "name": "Medzi jarkami",
                "id": 237
            }
        },
        {
            "type": "Feature",
            "geometry": {
                "type": "Point",
                "coordinates": [
                    21.23262,
                    49.05676
                ]
            },
            "properties": {
                "Type": "Stop_Mhd",
                "name": "Pri kostole",
                "id": 238
            }
        },
        {
            "type": "Feature",
            "geometry": {
                "type": "Point",
                "coordinates": [
                    21.23222,
                    49.05349
                ]
            },
            "properties": {
                "Type": "Stop_Mhd",
                "name": "Husí hrb",
                "id": 239
            }
        },
        {
            "type": "Feature",
            "geometry": {
                "type": "Point",
                "coordinates": [
                    21.22424,
                    49.04784
                ]
            },
            "properties": {
                "Type": "Stop_Mhd",
                "name": "Kozí rožok",
                "id": 240
            }
        },
        {
            "type": "Feature",
            "geometry": {
                "type": "Point",
                "coordinates": [
                    21.216516,
                    49.044342
                ]
            },
            "properties": {
                "Type": "Stop_Mhd",
                "name": "Sordok",
                "id": 241
            }
        },
        {
            "type": "Feature",
            "geometry": {
                "type": "Point",
                "coordinates": [
                    21.21096,
                    49.04382
                ]
            },
            "properties": {
                "Type": "Stop_Mhd",
                "name": "Rázcestie Kanaš",
                "id": 242
            }
        },
        {
            "type": "Feature",
            "geometry": {
                "type": "Point",
                "coordinates": [
                    21.210874,
                    49.042977
                ]
            },
            "properties": {
                "Type": "Stop_Mhd",
                "name": "Rázcestie Kanaš",
                "id": 243
            }
        },
        {
            "type": "Feature",
            "geometry": {
                "type": "Point",
                "coordinates": [
                    21.21218,
                    49.03548
                ]
            },
            "properties": {
                "Type": "Stop_Mhd",
                "name": "Pod kopaninou",
                "id": 244
            }
        },
        {
            "type": "Feature",
            "geometry": {
                "type": "Point",
                "coordinates": [
                    21.21203,
                    49.0351
                ]
            },
            "properties": {
                "Type": "Stop_Mhd",
                "name": "Pod kopaninou",
                "id": 245
            }
        },
        {
            "type": "Feature",
            "geometry": {
                "type": "Point",
                "coordinates": [
                    21.22058,
                    49.0287
                ]
            },
            "properties": {
                "Type": "Stop_Mhd",
                "name": "Bikoš",
                "id": 246
            }
        },
        {
            "type": "Feature",
            "geometry": {
                "type": "Point",
                "coordinates": [
                    21.219568,
                    49.028851
                ]
            },
            "properties": {
                "Type": "Stop_Mhd",
                "name": "Bikoš",
                "id": 247
            }
        },
        {
            "type": "Feature",
            "geometry": {
                "type": "Point",
                "coordinates": [
                    21.2625,
                    48.95098
                ]
            },
            "properties": {
                "Type": "Stop_Mhd",
                "name": "Logistické centrum",
                "id": 248
            }
        },
        {
            "type": "Feature",
            "geometry": {
                "type": "Point",
                "coordinates": [
                    21.26197,
                    48.95109
                ]
            },
            "properties": {
                "Type": "Stop_Mhd",
                "name": "Logistické centrum",
                "id": 249
            }
        },
        {
            "type": "Feature",
            "geometry": {
                "type": "Point",
                "coordinates": [
                    21.2683,
                    48.95601
                ]
            },
            "properties": {
                "Type": "Stop_Mhd",
                "name": "Priemyselný park Záborské",
                "id": 250
            }
        },
        {
            "type": "Feature",
            "geometry": {
                "type": "Point",
                "coordinates": [
                    21.28788,
                    48.94709
                ]
            },
            "properties": {
                "Type": "Stop_Mhd",
                "name": "Rázcestie Záborské",
                "id": 251
            }
        },
        {
            "type": "Feature",
            "geometry": {
                "type": "Point",
                "coordinates": [
                    21.28932,
                    48.94481
                ]
            },
            "properties": {
                "Type": "Stop_Mhd",
                "name": "Záborské - stred",
                "id": 252
            }
        },
        {
            "type": "Feature",
            "geometry": {
                "type": "Point",
                "coordinates": [
                    21.28779,
                    48.94243
                ]
            },
            "properties": {
                "Type": "Stop_Mhd",
                "name": "Záborské",
                "id": 253
            }
        },
        {
            "type": "Feature",
            "geometry": {
                "type": "Point",
                "coordinates": [
                    21.232014,
                    49.02478
                ]
            },
            "properties": {
                "Type": "Stop_Mhd",
                "name": "(medzi zastávkami Bikoš a Dúbrava)",
                "id": 254
            }
        },
        {
            "type": "Feature",
            "geometry": {
                "type": "Point",
                "coordinates": [
                    21.231716,
                    49.024966
                ]
            },
            "properties": {
                "Type": "Stop_Mhd",
                "name": "(medzi zastávkami Dúbrava a Rázcestie Šidlovec)",
                "id": 255
            }
        },
        {
            "type": "Feature",
            "geometry": {
                "type": "Point",
                "coordinates": [
                    21.25587,
                    48.952934
                ]
            },
            "properties": {
                "Type": "Stop_Mhd",
                "name": "(medzi zastávkami Hydinárske závody a Vysielač)",
                "id": 256
            }
        },
        {
            "type": "Feature",
            "geometry": {
                "type": "Point",
                "coordinates": [
                    21.21317,
                    49.04102
                ]
            },
            "properties": {
                "Type": "Stop_Mhd",
                "name": "Šariš park",
                "id": 257
            }
        },
        {
            "type": "Feature",
            "geometry": {
                "type": "Point",
                "coordinates": [
                    21.21282,
                    49.040766
                ]
            },
            "properties": {
                "Type": "Stop_Mhd",
                "name": "Šariš park",
                "id": 258
            }
        },
        {
            "type": "Feature",
            "geometry": {
                "type": "Point",
                "coordinates": [
                    21.256304,
                    48.960688
                ]
            },
            "properties": {
                "Type": "Stop_Mhd",
                "name": "(medzi zastávkami Petrovianska a Košická)",
                "id": 259
            }
        },
        {
            "type": "Feature",
            "geometry": {
                "type": "Point",
                "coordinates": [
                    21.27218,
                    48.955966
                ]
            },
            "properties": {
                "Type": "Stop_Mhd",
                "name": "(obratisko Honeywell)",
                "id": 260
            }
        },
        {
            "type": "Feature",
            "geometry": {
                "type": "Point",
                "coordinates": [
                    21.259183,
                    48.949743
                ]
            },
            "properties": {
                "Type": "Stop_Mhd",
                "name": "LC Tesco",
                "id": 261
            }
        },
        {
            "type": "Feature",
            "geometry": {
                "type": "Point",
                "coordinates": [
                    21.2091,
                    49.04339
                ]
            },
            "properties": {
                "Type": "Stop_Mhd",
                "name": "Pivovar",
                "id": 262
            }
        },
        {
            "type": "Feature",
            "geometry": {
                "type": "Point",
                "coordinates": [
                    21.20397,
                    49.04199
                ]
            },
            "properties": {
                "Type": "Stop_Mhd",
                "name": "Staničná",
                "id": 263
            }
        },
        {
            "type": "Feature",
            "geometry": {
                "type": "Point",
                "coordinates": [
                    21.1994,
                    49.03923
                ]
            },
            "properties": {
                "Type": "Stop_Mhd",
                "name": "Medulienka",
                "id": 264
            }
        },
        {
            "type": "Feature",
            "geometry": {
                "type": "Point",
                "coordinates": [
                    21.199585,
                    49.039168
                ]
            },